{
    "type": "FeatureCollection",
    "features": [
        {
            "type": "Feature",
            "properties": {
                "name": "Muhimbili National Hospital",
                "address": "Upanga West",
                "city": "Dar es Salaam",
                "phone": "+255 22 215 1599",
                "web": "mnh.or.tz"
            },
            "geometry": {
                "type": "Point",
                "coordinates": [
                    39.27261,
                    -6.80308
                ]
            }
        },
        {
            "type": "Feature",
            "properties": {
                "name": "Mwananyamala Hospital",
                "address": "Makumbusho",
                "city": "Dar es Salaam",
                "phone": "+255 22 276 0499"
            },
            "geometry": {
                "type": "Point",
                "coordinates": [
                    39.253012,
                    -6.787154
                ]
            }
        },
        {
            "type": "Feature",
            "properties": {
                "name": "Magomeni Hospital",
                "address": "Magomeni Mikumi",
                "city": "Dar es Salaam",
                "phone": "+255 (22) 2171871"
            },
            "geometry": {
                "type": "Point",
                "coordinates": [
                   39.257886,
                    -6.806561
                ]
            }
        },
        {
            "type": "Feature",
            "properties": {
                "name": "Amana Hospital",
                "address": "Ilala",
                "city": "Dar es Salaam",
                "phone": "+255 22 2151364-9"
            },
            "geometry": {
                "type": "Point",
                "coordinates": [
                    39.258927,
                    -6.826352
                ]
            }
        },
        {
            "type": "Feature",
            "properties": {
                "name": "Temeke Hospital",
                "address": "Temeke",
                "city": "Dar es Salaam",
                "phone": "+255 (22)2856515"
            },
            "geometry": {
                "type": "Point",
                "coordinates": [
                    39.311910,
                    -6.828105
                ]
            }
        },
        {
            "type": "Feature",
            "properties": {
                "name": "Ebrahim Haji Hospital",
                "address": "Gerezani",
                "city": "Dar es Salaam",
                "phone": "+255 22 211 4995",
                "web": "www.ebrahimhaji.com"
            },
            "geometry": {
                "type": "Point",
                "coordinates": [
                    39.284561,
                    -6.817768
                ]
            }
        },
        {
            "type": "Feature",
            "properties": {
                "name": "Kilimanjaro Christian Medical Centre (KCMC)",
                "address": "Moshi",
                "city": "Kilimanjaro",
                "phone": "+255 27 2754377-2754383",
                "web": "www.kcmc.ac.tz"
            },
            "geometry": {
                "type": "Point",
                "coordinates": [
                    37.327281,
                    -3.320061
                ]
            }
        },
        {
            "type": "Feature",
            "properties": {
                "name": "Tumbi Special Hospital",
                "address": "Kibaha",
                "city": "Pwani",
                "phone": "+255 23 2402101",
                "web": "www.kec.or.tz"
            },
            "geometry": {
                "type": "Point",
                "coordinates": [
                    38.970883,
                    -6.784625
                ]
            }
        },
        {
            "type": "Feature",
            "properties": {
                "name": "Berega Hospital",
                "address": "Morogoro",
                "city": "Morogoro",
                "phone": "+255 23 2628500",
                "web": "#"
            },
            "geometry": {
                "type": "Point",
                "coordinates": [
                    37.146295,
                    -6.180468
                ]
            }
        },
        {
            "type": "Feature",
            "properties": {
                "name": "Bugando Medical Hospital",
                "address": "Bugando",
                "city": "Mwanza",
                "phone": "+255 28 406105",
                "web": "www.bugandomedicalcentre.go.tz"
            },
            "geometry": {
                "type": "Point",
                "coordinates": [
                    32.907841,
                    -2.528299
                ]
            }
        },
        {
            "type": "Feature",
            "properties": {
                "name": "Kisarawe District Hospital",
                "address": "Kisarawe",
                "city": "Pwani",
                "phone": "#",
                "web": "#"
            },
            "geometry": {
                "type": "Point",
                "coordinates": [
                    39.075470,
                    -6.905546
                ]
            }
        },
        {
            "type": "Feature",
            "properties": {
                "name": "Bagamoyo Hospital",
                "address": "Bagamoyo",
                "city": "Pwani",
                "phone": "#",
                "web": "#"
            },
            "geometry": {
                "type": "Point",
                "coordinates": [
                    38.906702,
                    -6.437245
                ]
            }
        },
          {
            "type": "Feature",
            "properties": {
                "name": "Dodoma Christian Medical Centre (DCMC)",
                "address": "Chamwino",
                "city": "Dodoma",
                "phone": "+255 26 2321051",
                "web": "#"
            },
            "geometry": {
                "type": "Point",
                "coordinates": [
                    35.758545,
                    -6.214175
                ]
            }
        }
    ]
}
