{
    "type": "FeatureCollection",
    "features": [
        {
            "type": "Feature",
            "properties": {
                "name": "Muhimbili National Hospital",
                "address": "Upanga West",
                "city": "Dar es Salaam",
                "phone": "+255 22 215 1599",
                "web": "mnh.or.tz"
            },
            "geometry": {
                "type": "Point",
                "coordinates": [
                    39.27261,
                    -6.80308
                ]
            }
        },
        {
            "type": "Feature",
            "properties": {
                "name": "Mwananyamala Hospital",
                "address": "Makumbusho",
                "city": "Dar es Salaam",
                "phone": "+255 22 276 0499"
            },
            "geometry": {
                "type": "Point",
                "coordinates": [
                    39.253012,
                    -6.787154
                ]
            }
        },
        {
            "type": "Feature",
            "properties": {
                "name": "Magomeni Hospital",
                "address": "Magomeni Mikumi",
                "city": "Dar es Salaam",
                "phone": "+255 (22) 2171871"
            },
            "geometry": {
                "type": "Point",
                "coordinates": [
                   39.257886,
                    -6.806561
                ]
            }
        },
        {
            "type": "Feature",
            "properties": {
                "name": "Amana Hospital",
                "address": "Ilala",
                "city": "Dar es Salaam",
                "phone": "+255 22 2151364-9"
            },
            "geometry": {
                "type": "Point",
                "coordinates": [
                    39.258927,
                    -6.826352
                ]
            }
        },
        {
            "type": "Feature",
            "properties": {
                "name": "Temeke Hospital",
                "address": "Temeke",
                "city": "Dar es Salaam",
                "phone": "+255 (22)2856515"
            },
            "geometry": {
                "type": "Point",
                "coordinates": [
                    39.311910,
                    -6.828105
                ]
            }
        },
        {
            "type": "Feature",
            "properties": {
                "name": "Ebrahim Haji Hospital",
                "address": "Gerezani",
                "city": "Dar es Salaam",
                "phone": "+255 22 211 4995",
                "web": "www.ebrahimhaji.com"
            },
            "geometry": {
                "type": "Point",
                "coordinates": [
                    39.284561,
                    -6.817768
                ]
            }
        }
    ]
}
