{
    "type": "FeatureCollection",
    "features": [
        {
            "type": "Feature",
            "properties": {
                "name": "Muhimbili National Hospital",
                "address": "Upanga West",
                "city": "Dar es Salaam",
                "phone": "+255 22 215 1599",
                "web": "mnh.or.tz"
            },
            "geometry": {
                "type": "Point",
                "coordinates": [
                    39.27261,
                    -6.80308
                ]
            }
        },
        {
            "type": "Feature",
            "properties": {
                "name": "Mwananyamala Hospital",
                "address": "Makumbusho",
                "city": "Dar es Salaam",
                "phone": "+255 22 276 0499"
            },
            "geometry": {
                "type": "Point",
                "coordinates": [
                    39.253012,
                    -6.787154
                ]
            }
        },
        {
            "type": "Feature",
            "properties": {
                "name": "Magomeni Hospital",
                "address": "Magomeni Mikumi",
                "city": "Dar es Salaam",
                "phone": "+255 (22) 2171871"
            },
            "geometry": {
                "type": "Point",
                "coordinates": [
                   39.257886,
                    -6.806561
                ]
            }
        },
        {
            "type": "Feature",
            "properties": {
                "name": "Amana Hospital",
                "address": "Ilala",
                "city": "Dar es Salaam",
                "phone": "+255 22 2151364-9"
            },
            "geometry": {
                "type": "Point",
                "coordinates": [
                    39.258927,
                    -6.826352
                ]
            }
        },
        {
            "type": "Feature",
            "properties": {
                "name": "Temeke Hospital",
                "address": "Temeke",
                "city": "Dar es Salaam",
                "phone": "+255 (22)2856515"
            },
            "geometry": {
                "type": "Point",
                "coordinates": [
                    39.311910,
                    -6.828105
                ]
            }
        },
        {
            "type": "Feature",
            "properties": {
                "name": "Ebrahim Haji Hospital",
                "address": "Gerezani",
                "city": "Dar es Salaam",
                "phone": "+255 22 211 4995",
                "web": "www.ebrahimhaji.com"
            },
            "geometry": {
                "type": "Point",
                "coordinates": [
                    39.284561,
                    -6.817768
                ]
            }
        },
        {
            "type": "Feature",
            "properties": {
                "name": "Kilimanjaro Christian Medical Centre (KCMC)",
                "address": "Moshi",
                "city": "Kilimanjaro",
                "phone": "+255 27 2754377-2754383",
                "web": "www.kcmc.ac.tz"
            },
            "geometry": {
                "type": "Point",
                "coordinates": [
                    37.327281,
                    -3.320061
                ]
            }
        },
        {
            "type": "Feature",
            "properties": {
                "name": "Tumbi Special Hospital",
                "address": "Kibaha",
                "city": "Pwani",
                "phone": "+255 23 2402101",
                "web": "www.kec.or.tz"
            },
            "geometry": {
                "type": "Point",
                "coordinates": [
                    38.970883,
                    -6.784625
                ]
            }
        },
        {
            "type": "Feature",
            "properties": {
                "name": "Berega Hospital",
                "address": "Morogoro",
                "city": "Morogoro",
                "phone": "+255 23 2628500",
                "web": "#"
            },
            "geometry": {
                "type": "Point",
                "coordinates": [
                    37.146295,
                    -6.180468
                ]
            }
        },
        {
            "type": "Feature",
            "properties": {
                "name": "Bugando Medical Centre",
                "address": "Bugando",
                "city": "Mwanza",
                "phone": "+255 28 406105",
                "web": "www.bugandomedicalcentre.go.tz"
            },
            "geometry": {
                "type": "Point",
                "coordinates": [
                    32.907841,
                    -2.528299
                ]
            }
        },
        {
            "type": "Feature",
            "properties": {
                "name": "Kisarawe District Hospital",
                "address": "Kisarawe",
                "city": "Pwani",
                "phone": "#",
                "web": "#"
            },
            "geometry": {
                "type": "Point",
                "coordinates": [
                    39.075470,
                    -6.905546
                ]
            }
        },
        {
            "type": "Feature",
            "properties": {
                "name": "Bagamoyo Hospital",
                "address": "Bagamoyo",
                "city": "Pwani",
                "phone": "#",
                "web": "#"
            },
            "geometry": {
                "type": "Point",
                "coordinates": [
                    38.906702,
                    -6.437245
                ]
            }
        },
          {
            "type": "Feature",
            "properties": {
                "name": "Dodoma Christian Medical Centre (DCMC)",
                "address": "Chamwino",
                "city": "Dodoma",
                "phone": "+255 26 2321051",
                "web": "#"
            },
            "geometry": {
                "type": "Point",
                "coordinates": [
                    35.758545,
                    -6.214175
                ]
            }
        },
        {
            "type": "Feature",
            "properties": {
                "name": "Marangu Hospital",
                "address": "Marangu",
                "city": "Moshi",
                "phone": "#",
                "web": "#"
            },
            "geometry": {
                "type": "Point",
                "coordinates": [
                    37.518096,
                    -3.280772
                ]
            }
        },
        {
            "type": "Feature",
            "properties": {
                "name": "Mawenzi Hospital",
                "address": "Near Uhuru Park",
                "city": "Moshi",
                "phone": "#",
                "web": "#"
            },
            "geometry": {
                "type": "Point",
                "coordinates": [
                    37.339767,
                    -3.351465
                ]
            }
        },
        {
            "type": "Feature",
            "properties": {
                "name": "SANITA Medics and Diagnostics ltd",
                "address": "plot 168 along Mwai Kibaki Rd,Mikocheni",
                "city": "Dar es Salaam",
                "phone": "+255 222 701410/+255 688 863035",
                "web": "www.sanitasmedics.com"
            },
            "geometry": {
                "type": "Point",
                "coordinates": [
                    39.253411,
                    -6.761507
                ]
            }
        },
        {
            "type": "Feature",
            "properties": {
                "name": "Lugalo General Military Hospital",
                "address": "Kawe,along Bagamoyo Road",
                "city": "Dar es Salaam",
                "phone": "0025522 277 5184",
                "web": "#"
            },
            "geometry": {
                "type": "Point",
                "coordinates": [
                    39.205434,
                    -6.693887
                ]
            }
        },
        {
            "type": "Feature",
            "properties": {
                "name": "Kilimanjaro Hospital",
                "address": "Near Ngujini Road",
                "city": "Moshi",
                "phone": "#",
                "web": "#"
            },
            "geometry": {
                "type": "Point",
                "coordinates": [
                    37.660986,
                    -3.694142
                ]
            }
        },
        {
            "type": "Feature",
            "properties": {
                "name": "Maweni Hospital",
                "address": "Lumumba Street",
                "city": "Kigoma",
                "phone": "#",
                "web": "#"
            },
            "geometry": {
                "type": "Point",
                "coordinates": [
                    29.635380,
                    -4.885346
                ]
            }
        },
        {
            "type": "Feature",
            "properties": {
                "name": "Kigoma Regional Hospital",
                "address": "Lumumba Street",
                "city": "Kigoma",
                "phone": "#",
                "web": "#"
            },
            "geometry": {
                "type": "Point",
                "coordinates": [
                    29.653635,
                    -4.895568
                ]
            }
        },
        {
            "type": "Feature",
            "properties": {
                "name": "Shinyanga Regional Hospital",
                "address": "Shinyanga",
                "city": "Shinyanga",
                "phone": "#",
                "web": "#"
            },
            "geometry": {
                "type": "Point",
                "coordinates": [
                    33.599871,
                    -3.535855
                ]
            }
        },
        {
            "type": "Feature",
            "properties": {
                "name": "Bombo Regional Hospital",
                "address": "Hospital Road",
                "city": "Tanga",
                "phone": "#",
                "web": "#"
            },
            "geometry": {
                "type": "Point",
                "coordinates": [
                    39.112085,
                    -5.063731
                ]
            }
        },
        {
            "type": "Feature",
            "properties": {
                "name": "Lugala Hospital",
                "address": "Near Malinyi Village, Ulanga District",
                "city": "Morogoro",
                "phone": "#",
                "web": "#"
            },
            "geometry": {
                "type": "Point",
                "coordinates": [
                    36.137574,
                    -8.924714
                ]
            }
        },
        {
            "type": "Feature",
            "properties": {
                "name": "Dareda Designated Hospital",
                "address": "Babati District",
                "city": "Manyara",
                "phone": "+255 272 531245",
                "web": "www.daredahospital.com"
            },
            "geometry": {
                "type": "Point",
                "coordinates": [
                    35.492228,
                    -4.240060
                ]
            }
        },
        {
            "type": "Feature",
            "properties": {
                "name": "Ligula Hospital",
                "address": "Near Jamhuri Road",
                "city": "Mtwara",
                "phone": "#",
                "web": "#"
            },
            "geometry": {
                "type": "Point",
                "coordinates": [
                    40.172716,
                    -10.282307
                ]
            }
        },
        {
            "type": "Feature",
            "properties": {
                "name": "Sokoine (Lindi) Hospital",
                "address": "B2",
                "city": "Lindi",
                "phone": "#",
                "web": "#"
            },
            "geometry": {
                "type": "Point",
                "coordinates": [
                    39.705574,
                    -9.980968
                ]
            }
        },
        {
            "type": "Feature",
            "properties": {
                "name": "St. Walburg's Hospital",
                "address": "Nyangao",
                "city": "Lindi",
                "phone": "+255 717 119665",
                "web": "www.nyangaohospital.com‎"
            },
            "geometry": {
                "type": "Point",
                "coordinates": [
                    39.297090,
                    -10.331106
                ]
            }
        },
        {
            "type": "Feature",
            "properties": {
                "name": "Kitete Hospital",
                "address": "Near Itetemia Road",
                "city": "Tabora",
                "phone": "+255 26 2605950",
                "web": "#"
            },
            "geometry": {
                "type": "Point",
                "coordinates": [
                    32.808281,
                    -5.029664
                ]
            }
        },
        {
            "type": "Feature",
            "properties": {
                "name": "Sumbawanga District Hospital",
                "address": "Sumbawanga",
                "city": "Rukwa",
                "phone": "#",
                "web": "#"
            },
            "geometry": {
                "type": "Point",
                "coordinates": [
                    31.613017,
                    -7.965853
                ]
            }
        },
        {
            "type": "Feature",
            "properties": {
                "name": "Rukwa Regional Hospital",
                "address": "Sumbawanga",
                "city": "Rukwa",
                "phone": "+255 25 2802078",
                "web": "#"
            },
            "geometry": {
                "type": "Point",
                "coordinates": [
                    31.614519,
                    -7.966852
                ]
            }
        },
        {
            "type": "Feature",
            "properties": {
                "name": "Iringa Regional Hospital",
                "address": "Near Iringa District Prison",
                "city": "Iringa",
                "phone": "#",
                "web": "#"
            },
            "geometry": {
                "type": "Point",
                "coordinates": [
                    35.699901,
                    -7.781689
                ]
            }
        },
        {
            "type": "Feature",
            "properties": {
                "name": "Imecc Hospital",
                "address": "Near National Milling Corporation",
                "city": "Iringa",
                "phone": "#",
                "web": "#"
            },
            "geometry": {
                "type": "Point",
                "coordinates": [
                    35.699725,
                    -7.774549
                ]
            }
        },
        {
            "type": "Feature",
            "properties": {
                "name": "Ngome Hospital",
                "address": "Near Ngome Primary School",
                "city": "Iringa",
                "phone": "#",
                "web": "#"
            },
            "geometry": {
                "type": "Point",
                "coordinates": [
                    35.715945,
                    -7.750231
                ]
            }
        },
        {
            "type": "Feature",
            "properties": {
                "name": "Bukoba Provincial Hospital",
                "address": "Near Uganda Road",
                "city": "Bukoba",
                "phone": "#",
                "web": "#"
            },
            "geometry": {
                "type": "Point",
                "coordinates": [
                    31.809640,
                    -1.333951
                ]
            }
        },
        {
            "type": "Feature",
            "properties": {
                "name": "Aghakhan Primary Medical Centre",
                "address": "Behind Aghakhan Mosque",
                "city": "Mwanza",
                "phone": "#",
                "web": "#"
            },
            "geometry": {
                "type": "Point",
                "coordinates": [
                    32.906692,
                    -2.522492
                ]
            }
        },
        {
            "type": "Feature",
            "properties": {
                "name": "Dodoma Urban Hospital",
                "address": "Makole",
                "city": "Dodoma",
                "phone": "#",
                "web": "#"
            },
            "geometry": {
                "type": "Point",
                "coordinates": [
                    35.752009,
                    -6.179366

                ]
            }
        },
        {
            "type": "Feature",
            "properties": {
                "name": "Kondoa District Hospital",
                "address": "Kondoa Mjini",
                "city": "Dodoma",
                "phone": "#",
                "web": "#"
            },
            "geometry": {
                "type": "Point",
                "coordinates": [
                    35.795149,
                    -4.904002

                ]
            }
        },
        {
            "type": "Feature",
            "properties": {
                "name": "Kongwa District Hospital",
                "address": "Kongwa Mjini",
                "city": "Dodoma",
                "phone": "#",
                "web": "#"
            },
            "geometry": {
                "type": "Point",
                "coordinates": [
                    36.389937,
                    -6.193302

                ]
            }
        },
        {
            "type": "Feature",
            "properties": {
                "name": "Ludewa Hospital",
                "address": "Mawengi Ludewa",
                "city": "Iringa",
                "phone": "#",
                "web": "#"
            },
            "geometry": {
                "type": "Point",
                "coordinates": [
                    34.684241,
                    -10.10193

                ]
            }
        },
        {
            "type": "Feature",
            "properties": {
                "name": "Ilembula Lutheran Hospital",
                "address": "Usuka Njombe",
                "city": "Iringa",
                "phone": "#",
                "web": "#"
            },
            "geometry": {
                "type": "Point",
                "coordinates": [
                    34.684241,
                    -10.10193

                ]
            }
        },
        {
            "type": "Feature",
            "properties": {
                "name": "Kabanga Hospital",
                "address": "Kabanga Ngara",
                "city": "Bukoba",
                "phone": "#",
                "web": "#"
            },
            "geometry": {
                "type": "Point",
                "coordinates": [
                    30.466681,
                    -2.638813

                ]
            }
        },
        {
            "type": "Feature",
            "properties": {
                "name": "Kasulu District Hospital",
                "address": "Kasulu",
                "city": "Kigoma",
                "phone": "#",
                "web": "#"
            },
            "geometry": {
                "type": "Point",
                "coordinates": [
                    30.096536,
                    -4.561172

                ]
            }
        },
        {
            "type": "Feature",
            "properties": {
                "name": "Heri Adventist Hospital",
                "address": "Muhunga Kasulu",
                "city": "Kigoma",
                "phone": "#",
                "web": "#"
            },
            "geometry": {
                "type": "Point",
                "coordinates": [
                    29.792771,
                    -4.444339

                ]
            }
        },
        {
            "type": "Feature",
            "properties": {
                "name": "Saint Joseph Hospital",
                "address": "Moshi Urban Near Soweto Graves",
                "city": "Moshi",
                "phone": "#",
                "web": "#"
            },
            "geometry": {
                "type": "Point",
                "coordinates": [
                    37.317477,
                    -3.355434

                ]
            }
        },
        {
            "type": "Feature",
            "properties": {
                "name": "Moshi Arusha Hospital",
                "address": "Along side Arusha Himo road",
                "city": "Moshi",
                "phone": "#",
                "web": "#"
            },
            "geometry": {
                "type": "Point",
                "coordinates": [
                    37.338463,
                    -3.346142

                ]
            }
        },
        {
            "type": "Feature",
            "properties": {
                "name": "Kilema Hospital",
                "address": "Kilema",
                "city": "Moshi",
                "phone": "#",
                "web": "#"
            },
            "geometry": {
                "type": "Point",
                "coordinates": [
                    37.495823,
                    -3.304451

                ]
            }
        },
        {
            "type": "Feature",
            "properties": {
                "name": "Hai District Hospital",
                "address": "District Hospital",
                "city": "Moshi",
                "phone": "#",
                "web": "#"
            },
            "geometry": {
                "type": "Point",
                "coordinates": [
                    37.141938,
                    -3.331935

                ]
            }
        },
        {
            "type": "Feature",
            "properties": {
                "name": "Marangu Hospital",
                "address": "Marangu",
                "city": "Moshi",
                "phone": "#",
                "web": "#"
            },
            "geometry": {
                "type": "Point",
                "coordinates": [
                    37.518096,
                    -3.280772

                ]
            }
        },
        {
            "type": "Feature",
            "properties": {
                "name": "Nkansi District Hospital",
                "address": "Namanyere Sumbawanga",
                "city": "Rukwa",
                "phone": "#",
                "web": "#"
            },
            "geometry": {
                "type": "Point",
                "coordinates": [
                    31.039075,
                    -7.506480

                ]
            }
        },
        {
            "type": "Feature",
            "properties": {
                "name": "Nyarero Hospital",
                "address": "Nyamwanga",
                "city": "Musoma",
                "phone": "#",
                "web": "#"
            },
            "geometry": {
                "type": "Point",
                "coordinates": [
                    34.540206,
                    -1.390272

                ]
            }
        },
        {
            "type": "Feature",
            "properties": {
                "name": "Tarime District Hospital",
                "address": "Near Kenya Road Tarime",
                "city": "Musoma",
                "phone": "#",
                "web": "#"
            },
            "geometry": {
                "type": "Point",
                "coordinates": [
                    34.368882,
                    -1.34672

                ]
            }
        },
        {
            "type": "Feature",
            "properties": {
                "name": "Winan Hospital",
                "address": "Near Nyamongo Road Nyamongo Tarime",
                "city": "Musoma",
                "phone": "#",
                "web": "#"
            },
            "geometry": {
                "type": "Point",
                "coordinates": [
                    34.383034,
                    -1.347643

                ]
            }
        },
        {
            "type": "Feature",
            "properties": {
                "name": "Nyamongo Hospital",
                "address": "Nyamongo Tarime",
                "city": "Musoma",
                "phone": "#",
                "web": "#"
            },
            "geometry": {
                "type": "Point",
                "coordinates": [
                    34.524105,
                    -1.469977

                ]
            }
        },
        {
            "type": "Feature",
            "properties": {
                "name": "Musoma Hospital",
                "address": "Lake Victoria Penisula",
                "city": "Musoma",
                "phone": "#",
                "web": "#"
            },
            "geometry": {
                "type": "Point",
                "coordinates": [
                    33.807237,
                    -1.480642

                ]
            }
        },
        {
            "type": "Feature",
            "properties": {
                "name": "St. Ann Mission Hospital",
                "address": "Uyui",
                "city": "Tabora",
                "phone": "#",
                "web": "#"
            },
            "geometry": {
                "type": "Point",
                "coordinates": [
                    32.842952,
                    -5.015119

                ]
            }
        },
		{
            "type": "Feature",
            "properties": {
                "name": "St.Philip Health Centre",
                "address": "Uyui",
                "city": "Tabora",
                "phone": "#",
                "web": "#"
            },
            "geometry": {
                "type": "Point",
                "coordinates": [
                    32.801668,
                    -5.047075

                ]
            }
        },
		{
            "type": "Feature",
            "properties": {
                "name": "Rusesa Health Centre",
                "address": "Musosi",
                "city": "Kigoma",
                "phone": "#",
                "web": "#"
            },
            "geometry": {
                "type": "Point",
                "coordinates": [
                    30.01636,
                    -4.820905

                ]
            }
        },
        {
            "type": "Feature",
            "properties": {
                "name": "AghaKhan Hospital",
                "address": "Behind Uhuru Street Near Madaraka Road",
                "city": "Morogoro",
                "phone": "#",
                "web": "#"
            },
            "geometry": {
                "type": "Point",
                "coordinates": [
                    37.664834,
                    -6.829044

                ]
            }
        },
        {
            "type": "Feature",
            "properties": {
                "name": "Morogoro Regional Hospital",
                "address": "Near Old Dar es Salaam Road",
                "city": "Morogoro",
                "phone": "#",
                "web": "#"
            },
            "geometry": {
                "type": "Point",
                "coordinates": [
                    37.67052,
                    -6.82759

                ]
            }
        },
        {
            "type": "Feature",
            "properties": {
                "name": "Mpanda District Hospital",
                "address": "Mpanda",
                "city": "Rukwa",
                "phone": "#",
                "web": "#"
            },
            "geometry": {
                "type": "Point",
                "coordinates": [
                    31.073971,
                    -6.339195

                ]
            }
        },
		{
            "type": "Feature",
            "properties": {
                "name": "Katandala Health Centre",
                "address": "Katandala",
                "city": "Rukwa",
                "phone": "#",
                "web": "#"
            },
            "geometry": {
                "type": "Point",
                "coordinates": [
                    31.620862,
                    -7.95145

                ]
            }
        },
        {
            "type": "Feature",
            "properties": {
                "name": "Mpui Health Centre",
                "address": "Near Sumbawanga Tunduma Road Mpui Sumbawanga",
                "city": "Rukwa",
                "phone": "#",
                "web": "#"
            },
            "geometry": {
                "type": "Point",
                "coordinates": [
                     31.83747,
                    -8.354264

                ]
            }
        },
        {
            "type": "Feature",
            "properties": {
                "name": "Laela Health Centre",
                "address": "Near Sumbawanga Tunduma Road",
                "city": "Rukwa",
                "phone": "#",
                "web": "#"
            },
            "geometry": {
                "type": "Point",
                "coordinates": [
                    32.049396,
                    -8.571354

                ]
            }
        },
        {
            "type": "Feature",
            "properties": {
                "name": "Urambo District Hospital",
                "address": "Urambo",
                "city": "Tabora",
                "phone": "#",
                "web": "#"
            },
            "geometry": {
                "type": "Point",
                "coordinates": [
                    32.074097,
                    -5.081625

                ]
            }
        },
        {
            "type": "Feature",
            "properties": {
                "name": "Seketoule Hospital",
                "address": "Machemba Road Ilemela",
                "city": "Mwanza",
                "phone": "#",
                "web": "#"
            },
            "geometry": {
                "type": "Point",
                "coordinates": [
                    32.904054,
                    -2.511003

                ]
            }
        },
        {
            "type": "Feature",
            "properties": {
                "name": "Bariadi District Hospital",
                "address": "Bariadi",
                "city": "Shinyanga",
                "phone": "#",
                "web": "#"
            },
            "geometry": {
                "type": "Point",
                "coordinates": [
                     33.99416,
                    -2.775769

                ]
            }
        },
        {
            "type": "Feature",
            "properties": {
                "name": "Sengerema District Hospital",
                "address": "Kamanga Road Sengerema",
                "city": "Mwanza",
                "phone": "+255 28 259 0018 ‎",
                "web": "#"
            },
            "geometry": {
                "type": "Point",
                "coordinates": [
                    32.655334,
                    -2.639397

                ]
            }
        },
        {
            "type": "Feature",
            "properties": {
                "name": "Zogolo Health Centre",
                "address": "Nzega",
                "city": "Shinyanga",
                "phone": "#",
                "web": "#"
            },
            "geometry": {
                "type": "Point",
                "coordinates": [
                    33.151048,
                    -4.098476

                ]
            }
        },
        {
            "type": "Feature",
            "properties": {
                "name": "Nzega District Hospital",
                "address": "Nzega",
                "city": "Shinyanga",
                "phone": "#",
                "web": "#"
            },
            "geometry": {
                "type": "Point",
                "coordinates": [
                    33.179585,
                    -4.21732

                ]
            }
        },
        {
            "type": "Feature",
            "properties": {
                "name": "Nkinga Hospital",
                "address": "Nkinga",
                "city": "Shinyanga",
                "phone": "#",
                "web": "#"
            },
            "geometry": {
                "type": "Point",
                "coordinates": [
                       33.439,
                    -4.426469

                ]
            }
        }
    ]
}
